# Automatically generated from Geofeed, DO NOT EDIT

[fdc8:dc88:ee11::/48]
country="China"
country_code="CN"
source="DN42"

[fdc8:dc88:ee11:186::1/128]
country="China"
country_code="CN"
region="Shaanxi"
region_code="SN"
city="Baoji"
latitude=30.99411
longitude=90.18183
accuracy_radius=50

[fdc8:dc88:ee11:188::1/128]
country="China"
country_code="CN"
region="Shanghai"
region_code="SH"
city="Shanghai"
latitude=31.22222
longitude=121.45806
accuracy_radius=50

[fdc8:dc88:ee11:189::1/128]
country="China"
country_code="CN"
region="Guangdong"
region_code="GD"
city="Guangzhou"
latitude=23.11667
longitude=113.25
accuracy_radius=50

[fdc8:dc88:ee11:190::1/128]
country="Japan"
country_code="JP"
region="Tokyo"
region_code="13"
city="Tokyo"
latitude=35.6895
longitude=139.69171
accuracy_radius=50

[fdc8:dc88:ee11:191::1/128]
country="United States"
country_code="US"
region="California"
region_code="CA"
city="San Jose"
latitude=38.06659
longitude=-122.56331
accuracy_radius=50

[fdc8:dc88:ee11:192::1/128]
country="Hong Kong"
country_code="HK"
latitude=22.27832
longitude=114.17469
accuracy_radius=50

[fdc8:dc88:ee11:193::1/128]
country="United States"
country_code="US"
region="California"
region_code="CA"
city="Los Angeles"
latitude=34.05223
longitude=-118.24368
accuracy_radius=50

[fdc8:dc88:ee11:194::1/128]
country="The Netherlands"
country_code="NL"
region="North Holland"
region_code="NH"
city="Amsterdam"
latitude=52.37403
longitude=4.88969
accuracy_radius=50

[fdc8:dc88:ee11:199::1/128]
country="Taiwan"
country_code="TW"
region="Taipei City"
region_code="TPE"
city="Taipei"
latitude=25.05306
longitude=121.52639
accuracy_radius=50

[fdc8:dc88:ee11:200::1/128]
country="Hong Kong"
country_code="HK"
latitude=22.27832
longitude=114.17469
accuracy_radius=50

[fdc8:dc88:ee11:128::/64]
country="United States"
country_code="US"
region="California"
region_code="CA"
city="Los Angeles"
latitude=34.05223
longitude=-118.24368
accuracy_radius=50

[fdc8:dc88:ee11:136::/64]
country="China"
country_code="CN"
region="Shanghai"
region_code="SH"
city="Shanghai"
latitude=31.22222
longitude=121.45806
accuracy_radius=50

[fdc8:dc88:ee11:150::/64]
country="Hong Kong"
country_code="HK"
latitude=22.27832
longitude=114.17469
accuracy_radius=50

[fdc8:dc88:ee11:152::/64]
country="China"
country_code="CN"
region="Shaanxi"
region_code="SN"
city="Baoji"
latitude=30.99411
longitude=90.18183
accuracy_radius=50

[fdc8:dc88:ee11:160::/64]
country="China"
country_code="CN"
region="Shaanxi"
region_code="SN"
city="Baoji"
latitude=30.99411
longitude=90.18183
accuracy_radius=50

[fdc8:dc88:ee11:251::/64]
country="Hong Kong"
country_code="HK"
latitude=22.27832
longitude=114.17469
accuracy_radius=50

[fdc8:dc88:ee11:252::/64]
country="United States"
country_code="US"
region="California"
region_code="CA"
city="Los Angeles"
latitude=34.05223
longitude=-118.24368
accuracy_radius=50

[fdc8:dc88:ee11:6666::/64]
country="China"
country_code="CN"
region="Shaanxi"
region_code="SN"
city="Baoji"
latitude=30.99411
longitude=90.18183
accuracy_radius=50

[fdc8:dc88:ee11:2929::/64]
country="China"
country_code="CN"
region="Shaanxi"
region_code="SN"
city="Baoji"
latitude=30.99411
longitude=90.18183
accuracy_radius=50

